{"type": "FeatureCollection", "features": [{"type":"Feature","geometry":{"type":"Point","coordinates":[-73.87689,40.84041]},"properties":{"cartodb_id":1,"name":"McDonald's","id":233,"address":"1101 E Tremont Ave","city":"Bronx","zip":10460,"latitude":40.8404097710001,"longitude":-73.8768904929999}},{"type":"Feature","geometry":{"type":"Point","coordinates":[-73.857258,40.892981]},"properties":{"cartodb_id":2,"name":"McDonald's","id":234,"address":"4174 White Plains Rd","city":"Bronx","zip":10466,"latitude":40.892981078,"longitude":-73.8572581109999}},{"type":"Feature","geometry":{"type":"Point","coordinates":[-73.918828,40.807669]},"properties":{"cartodb_id":3,"name":"McDonald's","id":235,"address":"513 E 138th St","city":"Bronx","zip":10454,"latitude":40.807669494,"longitude":-73.9188283109999}},{"type":"Feature","geometry":{"type":"Point","coordinates":[-73.867316,40.855454]},"properties":{"cartodb_id":4,"name":"McDonald's","id":236,"address":"2170 White Plains Rd","city":"Bronx","zip":10462,"latitude":40.855453879,"longitude":-73.8673157359999}},{"type":"Feature","geometry":{"type":"Point","coordinates":[-73.843308,40.889554]},"properties":{"cartodb_id":5,"name":"McDonald's","id":237,"address":"1201 E 233rd St","city":"Bronx","zip":10466,"latitude":40.8895540840001,"longitude":-73.8433084679999}},{"type":"Feature","geometry":{"type":"Point","coordinates":[-73.888536,40.854771]},"properties":{"cartodb_id":6,"name":"McDonald's","id":238,"address":"2357 Arthur Ave","city":"Bronx","zip":10458,"latitude":40.8547709430001,"longitude":-73.8885362529999}},{"type":"Feature","geometry":{"type":"Point","coordinates":[-73.89065,40.835491]},"properties":{"cartodb_id":7,"name":"McDonald's","id":239,"address":"1600 Boston Rd","city":"Bronx","zip":10460,"latitude":40.8354913900001,"longitude":-73.8906501009999}},{"type":"Feature","geometry":{"type":"Point","coordinates":[-73.908614,40.825176]},"properties":{"cartodb_id":8,"name":"McDonald's","id":240,"address":"3279 3rd Avenue","city":"Bronx","zip":10456,"latitude":40.825175915,"longitude":-73.9086140109999}},{"type":"Feature","geometry":{"type":"Point","coordinates":[-73.91994,40.835065]},"properties":{"cartodb_id":9,"name":"McDonald's","id":241,"address":"86 E 167th St","city":"Bronx","zip":10452,"latitude":40.8350653080001,"longitude":-73.9199404519999}},{"type":"Feature","geometry":{"type":"Point","coordinates":[-73.915522,40.839682]},"properties":{"cartodb_id":10,"name":"McDonald's","id":242,"address":"101 E 170th St","city":"Bronx","zip":10452,"latitude":40.839681505,"longitude":-73.9155221729999}},{"type":"Feature","geometry":{"type":"Point","coordinates":[-73.901698,40.884052]},"properties":{"cartodb_id":11,"name":"McDonald's","id":243,"address":"5765 Broadway","city":"Bronx","zip":10463,"latitude":40.884052351,"longitude":-73.9016980119999}},{"type":"Feature","geometry":{"type":"Point","coordinates":[-73.907273,40.854329]},"properties":{"cartodb_id":12,"name":"McDonald's","id":244,"address":"2065 Jerome Ave","city":"Bronx","zip":10453,"latitude":40.854329158,"longitude":-73.9072726189999}},{"type":"Feature","geometry":{"type":"Point","coordinates":[-73.846602,40.844491]},"properties":{"cartodb_id":13,"name":"McDonald's","id":245,"address":"1515 Williamsbridge Rd","city":"Bronx","zip":10461,"latitude":40.844490535,"longitude":-73.8466024189999}},{"type":"Feature","geometry":{"type":"Point","coordinates":[-73.858752,40.833203]},"properties":{"cartodb_id":14,"name":"McDonald's","id":246,"address":"1982 Westchester Ave","city":"Bronx","zip":10462,"latitude":40.8332033250001,"longitude":-73.8587523309999}},{"type":"Feature","geometry":{"type":"Point","coordinates":[-73.882442,40.881251]},"properties":{"cartodb_id":15,"name":"McDonald's","id":247,"address":"3440-42 Jerome Ave","city":"Bronx","zip":10467,"latitude":40.8812512280001,"longitude":-73.8824418089999}},{"type":"Feature","geometry":{"type":"Point","coordinates":[-73.891362,40.822507]},"properties":{"cartodb_id":16,"name":"McDonald's","id":248,"address":"982 Southern Blvd","city":"Bronx","zip":10459,"latitude":40.82250681,"longitude":-73.8913615409999}},{"type":"Feature","geometry":{"type":"Point","coordinates":[-73.873683,40.822555]},"properties":{"cartodb_id":17,"name":"McDonald's","id":249,"address":"1600 Bruckner Blvd","city":"Bronx","zip":10473,"latitude":40.8225546720001,"longitude":-73.8736825789999}},{"type":"Feature","geometry":{"type":"Point","coordinates":[-73.925268,40.828029]},"properties":{"cartodb_id":18,"name":"McDonald's","id":250,"address":"51-67 E 161st St","city":"Bronx","zip":10451,"latitude":40.8280286920001,"longitude":-73.925267834}},{"type":"Feature","geometry":{"type":"Point","coordinates":[-73.920365,40.82494]},"properties":{"cartodb_id":19,"name":"McDonald's","id":251,"address":"212 E 161st Street","city":"Bronx","zip":10451,"latitude":40.8249403490001,"longitude":-73.9203645429999}},{"type":"Feature","geometry":{"type":"Point","coordinates":[-73.927037,40.819831]},"properties":{"cartodb_id":20,"name":"McDonald's","id":252,"address":"597-99 Grand Concourse","city":"Bronx","zip":10451,"latitude":40.819831353,"longitude":-73.9270365449999}},{"type":"Feature","geometry":{"type":"Point","coordinates":[-73.916514,40.850197]},"properties":{"cartodb_id":21,"name":"McDonald's","id":253,"address":"1745 University Ave","city":"Bronx","zip":10453,"latitude":40.8501972030001,"longitude":-73.9165136749999}},{"type":"Feature","geometry":{"type":"Point","coordinates":[-73.897374,40.866977]},"properties":{"cartodb_id":22,"name":"McDonald's","id":254,"address":"2630 Jerome Ave","city":"Bronx","zip":10468,"latitude":40.8669765940001,"longitude":-73.8973737949999}},{"type":"Feature","geometry":{"type":"Point","coordinates":[-73.925668,40.806324]},"properties":{"cartodb_id":23,"name":"McDonald's","id":255,"address":"85 Bruckner Blvd","city":"Bronx","zip":10454,"latitude":40.806323702,"longitude":-73.9256678739999}},{"type":"Feature","geometry":{"type":"Point","coordinates":[-73.85227,40.834507]},"properties":{"cartodb_id":24,"name":"McDonald's","id":256,"address":"1317 Castlehill Avenue","city":"Bronx","zip":10462,"latitude":40.834507176,"longitude":-73.8522701129999}},{"type":"Feature","geometry":{"type":"Point","coordinates":[-73.852283,40.872609]},"properties":{"cartodb_id":25,"name":"McDonald's","id":257,"address":"1212 E Gun Hill Road","city":"Bronx","zip":10469,"latitude":40.872609206,"longitude":-73.8522830879999}},{"type":"Feature","geometry":{"type":"Point","coordinates":[-73.878798,40.872813]},"properties":{"cartodb_id":26,"name":"McDonald's","id":258,"address":"300 E 204th St","city":"Bronx","zip":10467,"latitude":40.8728130160001,"longitude":-73.8787975109999}},{"type":"Feature","geometry":{"type":"Point","coordinates":[-73.867089,40.864056]},"properties":{"cartodb_id":27,"name":"McDonald's","id":259,"address":"2516 White Plains Rd","city":"Bronx","zip":10467,"latitude":40.8640555160001,"longitude":-73.867088883}},{"type":"Feature","geometry":{"type":"Point","coordinates":[-73.861643,40.826392]},"properties":{"cartodb_id":28,"name":"McDonald's","id":260,"address":"1865 Bruckner Blvd","city":"Bronx","zip":10472,"latitude":40.8263916960001,"longitude":-73.8616429839999}},{"type":"Feature","geometry":{"type":"Point","coordinates":[-73.897716,40.67754]},"properties":{"cartodb_id":29,"name":"McDonald's","id":266,"address":"50 Jamaica Ave","city":"Brooklyn","zip":11207,"latitude":40.6775404790001,"longitude":-73.8977157839999}},{"type":"Feature","geometry":{"type":"Point","coordinates":[-74.011084,40.643989]},"properties":{"cartodb_id":30,"name":"McDonald's","id":267,"address":"5121 5th Ave","city":"Brooklyn","zip":11220,"latitude":40.6439893070001,"longitude":-74.0110841339999}},{"type":"Feature","geometry":{"type":"Point","coordinates":[-73.984235,40.675252]},"properties":{"cartodb_id":31,"name":"McDonald's","id":268,"address":"275-81 Fourth Ave","city":"Brooklyn","zip":11215,"latitude":40.6752518050001,"longitude":-73.9842348379999}},{"type":"Feature","geometry":{"type":"Point","coordinates":[-73.998207,40.604926]},"properties":{"cartodb_id":32,"name":"McDonald's","id":269,"address":"1983 86th St","city":"Brooklyn","zip":11214,"latitude":40.6049259700001,"longitude":-73.9982065449999}},{"type":"Feature","geometry":{"type":"Point","coordinates":[-73.943203,40.71198]},"properties":{"cartodb_id":33,"name":"McDonald's","id":270,"address":"741 Grand St","city":"Brooklyn","zip":11211,"latitude":40.711980344,"longitude":-73.9432025959999}},{"type":"Feature","geometry":{"type":"Point","coordinates":[-73.922538,40.677321]},"properties":{"cartodb_id":34,"name":"McDonald's","id":271,"address":"1883 Atlantic Avenue","city":"Brooklyn","zip":11233,"latitude":40.677321072,"longitude":-73.9225381139999}},{"type":"Feature","geometry":{"type":"Point","coordinates":[-73.952774,40.698705]},"properties":{"cartodb_id":35,"name":"McDonald's","id":272,"address":"35-40 Nostrand Ave","city":"Brooklyn","zip":11206,"latitude":40.6987054960001,"longitude":-73.9527744249999}},{"type":"Feature","geometry":{"type":"Point","coordinates":[-73.947986,40.632354]},"properties":{"cartodb_id":36,"name":"McDonald's","id":273,"address":"2154 Nostrand Ave","city":"Brooklyn","zip":11210,"latitude":40.632353906,"longitude":-73.9479864259999}},{"type":"Feature","geometry":{"type":"Point","coordinates":[-73.988999,40.599318]},"properties":{"cartodb_id":37,"name":"McDonald's","id":274,"address":"2411 86th St","city":"Brooklyn","zip":11214,"latitude":40.599317838,"longitude":-73.9889989039999}},{"type":"Feature","geometry":{"type":"Point","coordinates":[-74.005413,40.653736]},"properties":{"cartodb_id":38,"name":"McDonald's","id":275,"address":"968 4th Ave","city":"Brooklyn","zip":11232,"latitude":40.65373644,"longitude":-74.0054131339999}},{"type":"Feature","geometry":{"type":"Point","coordinates":[-73.957974,40.648755]},"properties":{"cartodb_id":39,"name":"McDonald's","id":276,"address":"943 Flatbush Avenue","city":"Brooklyn","zip":11226,"latitude":40.6487553430001,"longitude":-73.9579738589999}},{"type":"Feature","geometry":{"type":"Point","coordinates":[-73.957095,40.609562]},"properties":{"cartodb_id":40,"name":"McDonald's","id":277,"address":"1607 Kings Highway","city":"Brooklyn","zip":11229,"latitude":40.6095621700001,"longitude":-73.9570945379999}},{"type":"Feature","geometry":{"type":"Point","coordinates":[-73.889629,40.657869]},"properties":{"cartodb_id":41,"name":"McDonald's","id":278,"address":"819 Pennsylvania Ave","city":"Brooklyn","zip":11207,"latitude":40.6578694060001,"longitude":-73.889629339}},{"type":"Feature","geometry":{"type":"Point","coordinates":[-73.986713,40.669754]},"properties":{"cartodb_id":42,"name":"McDonald's","id":279,"address":"289 9th St","city":"Brooklyn","zip":11215,"latitude":40.669754331,"longitude":-73.9867126449999}},{"type":"Feature","geometry":{"type":"Point","coordinates":[-73.943482,40.701358]},"properties":{"cartodb_id":43,"name":"McDonald's","id":280,"address":"700 Broadway","city":"Brooklyn","zip":11206,"latitude":40.7013582440001,"longitude":-73.9434821349999}},{"type":"Feature","geometry":{"type":"Point","coordinates":[-73.89067,40.676236]},"properties":{"cartodb_id":44,"name":"McDonald's","id":281,"address":"2800 Atlantic Ave","city":"Brooklyn","zip":11207,"latitude":40.676235719,"longitude":-73.8906696789999}},{"type":"Feature","geometry":{"type":"Point","coordinates":[-73.975099,40.57955]},"properties":{"cartodb_id":45,"name":"McDonald's","id":282,"address":"606 Neptune Ave","city":"Brooklyn","zip":11224,"latitude":40.57955036,"longitude":-73.9750991599999}},{"type":"Feature","geometry":{"type":"Point","coordinates":[-73.940115,40.680101]},"properties":{"cartodb_id":46,"name":"McDonald's","id":283,"address":"1531 Fulton Street","city":"Brooklyn","zip":11216,"latitude":40.6801010400001,"longitude":-73.9401147019999}},{"type":"Feature","geometry":{"type":"Point","coordinates":[-73.959994,40.663726]},"properties":{"cartodb_id":47,"name":"McDonald's","id":284,"address":"57 Empire Blvd","city":"Brooklyn","zip":11225,"latitude":40.6637260990001,"longitude":-73.9599937529999}},{"type":"Feature","geometry":{"type":"Point","coordinates":[-74.027752,40.622089]},"properties":{"cartodb_id":48,"name":"McDonald's","id":285,"address":"430 86th St.","city":"Brooklyn","zip":11209,"latitude":40.622088573,"longitude":-74.0277516749999}},{"type":"Feature","geometry":{"type":"Point","coordinates":[-73.968142,40.6358]},"properties":{"cartodb_id":49,"name":"McDonald's","id":286,"address":"880 Coney Island Ave","city":"Brooklyn","zip":11218,"latitude":40.6358004770001,"longitude":-73.9681424299999}},{"type":"Feature","geometry":{"type":"Point","coordinates":[-73.915516,40.633776]},"properties":{"cartodb_id":50,"name":"McDonald's","id":287,"address":"7602 Flatlands Avenue","city":"Brooklyn","zip":11236,"latitude":40.6337756460001,"longitude":-73.9155162149999}},{"type":"Feature","geometry":{"type":"Point","coordinates":[-73.949817,40.650429]},"properties":{"cartodb_id":51,"name":"McDonald's","id":288,"address":"2848 Church Avenue","city":"Brooklyn","zip":11226,"latitude":40.6504291360001,"longitude":-73.9498174659999}},{"type":"Feature","geometry":{"type":"Point","coordinates":[-74.027285,40.63382]},"properties":{"cartodb_id":52,"name":"McDonald's","id":289,"address":"7124 3rd Ave.","city":"Brooklyn","zip":11209,"latitude":40.633819917,"longitude":-74.0272845779999}},{"type":"Feature","geometry":{"type":"Point","coordinates":[-73.919754,40.699319]},"properties":{"cartodb_id":53,"name":"McDonald's","id":290,"address":"428 Knickerbocker Ave","city":"Brooklyn","zip":11237,"latitude":40.699318508,"longitude":-73.9197536449999}},{"type":"Feature","geometry":{"type":"Point","coordinates":[-73.958913,40.70894]},"properties":{"cartodb_id":54,"name":"McDonald's","id":291,"address":"267 Broadway","city":"Brooklyn","zip":11211,"latitude":40.7089403370001,"longitude":-73.9589133939999}},{"type":"Feature","geometry":{"type":"Point","coordinates":[-73.920138,40.610083]},"properties":{"cartodb_id":55,"name":"McDonald's","id":292,"address":"5407 Kings Plz","city":"Brooklyn","zip":11234,"latitude":40.6100831580001,"longitude":-73.9201382329999}},{"type":"Feature","geometry":{"type":"Point","coordinates":[-73.923508,40.664803]},"properties":{"cartodb_id":56,"name":"McDonald's","id":293,"address":"1101 Rutland Avenue","city":"Brooklyn","zip":11212,"latitude":40.6648027910001,"longitude":-73.9235078559999}},{"type":"Feature","geometry":{"type":"Point","coordinates":[-73.939294,40.722488]},"properties":{"cartodb_id":57,"name":"McDonald's","id":294,"address":"652 Meeker Ave","city":"Brooklyn","zip":11222,"latitude":40.7224880380001,"longitude":-73.9392937489999}},{"type":"Feature","geometry":{"type":"Point","coordinates":[-73.845464,40.720169]},"properties":{"cartodb_id":58,"name":"McDonald's","id":316,"address":"106-15 71ST AVE","city":"Forest Hills","zip":11375,"latitude":40.72016884,"longitude":-73.8454635839999}},{"type":"Feature","geometry":{"type":"Point","coordinates":[-73.854433,40.711255]},"properties":{"cartodb_id":59,"name":"McDonald's","id":317,"address":"98-01 METROPOLITAN AVE","city":"Forest Hills","zip":11375,"latitude":40.7112545570001,"longitude":-73.8544333819999}},{"type":"Feature","geometry":{"type":"Point","coordinates":[-73.812391,40.727484]},"properties":{"cartodb_id":60,"name":"McDonald's","id":318,"address":"72-69 KISSENA BLVD","city":"Flushing","zip":11367,"latitude":40.7274839,"longitude":-73.8123906159999}},{"type":"Feature","geometry":{"type":"Point","coordinates":[-73.802624,40.70689]},"properties":{"cartodb_id":61,"name":"McDonald's","id":319,"address":"87-88 PARSON BLVD","city":"Jamaica","zip":11432,"latitude":40.7068900530001,"longitude":-73.8026235599999}},{"type":"Feature","geometry":{"type":"Point","coordinates":[-73.800011,40.703693]},"properties":{"cartodb_id":62,"name":"McDonald's","id":320,"address":"159-01 JAMAICA AVENUE","city":"Jamaica","zip":11432,"latitude":40.7036933740001,"longitude":-73.8000109819999}},{"type":"Feature","geometry":{"type":"Point","coordinates":[-73.863017,40.729611]},"properties":{"cartodb_id":63,"name":"McDonald's","id":321,"address":"95-05A 63RD DR","city":"Rego Park","zip":11374,"latitude":40.72961108,"longitude":-73.8630165449999}},{"type":"Feature","geometry":{"type":"Point","coordinates":[-73.869745,40.733761]},"properties":{"cartodb_id":64,"name":"McDonald's","id":322,"address":"91-19 QUEEN BLVD","city":"Elmhurst","zip":11373,"latitude":40.733760729,"longitude":-73.869744679}},{"type":"Feature","geometry":{"type":"Point","coordinates":[-73.865589,40.736943]},"properties":{"cartodb_id":65,"name":"McDonald's","id":323,"address":"95-05 57TH AVE","city":"Corona","zip":11373,"latitude":40.736942614,"longitude":-73.8655887349999}},{"type":"Feature","geometry":{"type":"Point","coordinates":[-73.823983,40.686564]},"properties":{"cartodb_id":66,"name":"McDonald's","id":324,"address":"119-05 LIBERTY AVE","city":"Richmond Hills","zip":11419,"latitude":40.6865639700001,"longitude":-73.8239827949999}},{"type":"Feature","geometry":{"type":"Point","coordinates":[-73.863105,40.749552]},"properties":{"cartodb_id":67,"name":"McDonald's","id":325,"address":"40-12 NATIONAL ST","city":"Corona","zip":11368,"latitude":40.7495518330001,"longitude":-73.8631054699999}},{"type":"Feature","geometry":{"type":"Point","coordinates":[-73.78117,40.71357]},"properties":{"cartodb_id":68,"name":"McDonald's","id":326,"address":"181-25 HILLSIDE AVENUE","city":"Jamaica","zip":11432,"latitude":40.7135704670001,"longitude":-73.7811698169999}},{"type":"Feature","geometry":{"type":"Point","coordinates":[-73.882914,40.738134]},"properties":{"cartodb_id":69,"name":"McDonald's","id":327,"address":"80-03 QUEENS BLVD","city":"Elmhurst","zip":11373,"latitude":40.7381335430001,"longitude":-73.8829144439999}},{"type":"Feature","geometry":{"type":"Point","coordinates":[-73.793292,40.686162]},"properties":{"cartodb_id":70,"name":"McDonald's","id":328,"address":"114-01 SUTPHIN BLVD","city":"Jamaica","zip":11436,"latitude":40.6861616,"longitude":-73.7932920329999}},{"type":"Feature","geometry":{"type":"Point","coordinates":[-73.883727,40.748073]},"properties":{"cartodb_id":71,"name":"McDonald's","id":329,"address":"37-59 82ND ST","city":"Jackson Heights","zip":11372,"latitude":40.748073117,"longitude":-73.8837270589999}},{"type":"Feature","geometry":{"type":"Point","coordinates":[-73.889882,40.747234]},"properties":{"cartodb_id":72,"name":"McDonald's","id":330,"address":"75-11 ROOSEVELT AVE","city":"Jackson Heights","zip":11372,"latitude":40.7472337820001,"longitude":-73.8898818879999}},{"type":"Feature","geometry":{"type":"Point","coordinates":[-73.870223,40.751116]},"properties":{"cartodb_id":73,"name":"McDonald's","id":331,"address":"37-19 JUNCTION BLVD","city":"Corona","zip":11368,"latitude":40.7511163460001,"longitude":-73.8702232539999}},{"type":"Feature","geometry":{"type":"Point","coordinates":[-73.809516,40.763814]},"properties":{"cartodb_id":74,"name":"McDonald's","id":332,"address":"155-14 ROOSEVELT AVE","city":"Flushing","zip":11354,"latitude":40.7638142580001,"longitude":-73.8095158639999}},{"type":"Feature","geometry":{"type":"Point","coordinates":[-73.90972,40.713309]},"properties":{"cartodb_id":75,"name":"McDonald's","id":333,"address":"54-29 METROPOLITAN AVE","city":"Ridgewood","zip":11385,"latitude":40.7133093780001,"longitude":-73.9097196789999}},{"type":"Feature","geometry":{"type":"Point","coordinates":[-73.906693,40.726281]},"properties":{"cartodb_id":76,"name":"McDonald's","id":334,"address":"59-60 55TH ROAD","city":"Maspeth","zip":11378,"latitude":40.7262814490001,"longitude":-73.9066931379999}},{"type":"Feature","geometry":{"type":"Point","coordinates":[-73.834175,40.769655]},"properties":{"cartodb_id":77,"name":"McDonald's","id":335,"address":"3001 STRATTON ST","city":"Flushing","zip":11354,"latitude":40.7696547820001,"longitude":-73.834175092}},{"type":"Feature","geometry":{"type":"Point","coordinates":[-73.779764,40.757887]},"properties":{"cartodb_id":78,"name":"McDonald's","id":336,"address":"203-11 NORTHERN BLVD","city":"Bayside","zip":11361,"latitude":40.757887457,"longitude":-73.7797644739999}},{"type":"Feature","geometry":{"type":"Point","coordinates":[-73.880937,40.764352]},"properties":{"cartodb_id":79,"name":"McDonald's","id":337,"address":"88-05 ASTORIA BLVD","city":"E Elmhurst","zip":11369,"latitude":40.7643521110001,"longitude":-73.8809370349999}},{"type":"Feature","geometry":{"type":"Point","coordinates":[-73.839946,40.657803]},"properties":{"cartodb_id":80,"name":"McDonald's","id":338,"address":"159-40 CROSS BAY BLVD","city":"Howard Beach","zip":11414,"latitude":40.6578027680001,"longitude":-73.8399458949999}},{"type":"Feature","geometry":{"type":"Point","coordinates":[-73.908348,40.753395]},"properties":{"cartodb_id":81,"name":"McDonald's","id":339,"address":"51-35 NORTHERN BLVD","city":"Woodside","zip":11377,"latitude":40.7533954500001,"longitude":-73.9083479399999}},{"type":"Feature","geometry":{"type":"Point","coordinates":[-73.910535,40.699446]},"properties":{"cartodb_id":82,"name":"McDonald's","id":340,"address":"54-04 MYRTLE AVE","city":"Ridgewood","zip":11385,"latitude":40.6994462050001,"longitude":-73.9105354729999}},{"type":"Feature","geometry":{"type":"Point","coordinates":[-73.91963,40.741711]},"properties":{"cartodb_id":83,"name":"McDonald's","id":342,"address":"45-06 GREENPOINT AVE","city":"Sun","zip":11104,"latitude":40.7417112400001,"longitude":-73.9196304119999}},{"type":"Feature","geometry":{"type":"Point","coordinates":[-73.744389,40.729219]},"properties":{"cartodb_id":84,"name":"McDonald's","id":343,"address":"88-14 SPRINGFIELD BLVD","city":"Hillside","zip":11427,"latitude":40.729219463,"longitude":-73.7443885129999}},{"type":"Feature","geometry":{"type":"Point","coordinates":[-73.918259,40.759444]},"properties":{"cartodb_id":85,"name":"McDonald's","id":344,"address":"31-67 STEINWAY ST","city":"Astoria","zip":11103,"latitude":40.759444096,"longitude":-73.9182589989999}},{"type":"Feature","geometry":{"type":"Point","coordinates":[-74.005324,40.715815]},"properties":{"cartodb_id":86,"name":"McDonalds","id":482,"address":"317 Broadway","city":"New York","zip":10007,"latitude":40.7158149410001,"longitude":-74.0053243869999}},{"type":"Feature","geometry":{"type":"Point","coordinates":[-74.009952,40.70934]},"properties":{"cartodb_id":87,"name":"McDonalds","id":483,"address":"160 Broadway","city":"New York","zip":10038,"latitude":40.7093397390001,"longitude":-74.009951596}},{"type":"Feature","geometry":{"type":"Point","coordinates":[-73.997266,40.71495]},"properties":{"cartodb_id":88,"name":"McDonalds","id":484,"address":"26 Bowery","city":"New York","zip":10013,"latitude":40.7149504320001,"longitude":-73.9972656959999}},{"type":"Feature","geometry":{"type":"Point","coordinates":[-74.001144,40.718521]},"properties":{"cartodb_id":89,"name":"McDonalds","id":485,"address":"262 Canal St","city":"New York","zip":10013,"latitude":40.7185213920001,"longitude":-74.0011435639999}},{"type":"Feature","geometry":{"type":"Point","coordinates":[-74.010591,40.716333]},"properties":{"cartodb_id":90,"name":"McDonalds","id":486,"address":"167 Chambers Street","city":"New York","zip":10007,"latitude":40.716333336,"longitude":-74.0105911379999}},{"type":"Feature","geometry":{"type":"Point","coordinates":[-74.012277,40.702969]},"properties":{"cartodb_id":91,"name":"McDonalds","id":487,"address":"6 Water Street","city":"New York","zip":10004,"latitude":40.7029689180001,"longitude":-74.0122769099999}},{"type":"Feature","geometry":{"type":"Point","coordinates":[-73.989236,40.712941]},"properties":{"cartodb_id":92,"name":"McDonalds","id":488,"address":"213 Madison Street","city":"New York","zip":10002,"latitude":40.7129407950001,"longitude":-73.9892362579999}},{"type":"Feature","geometry":{"type":"Point","coordinates":[-73.988243,40.718869]},"properties":{"cartodb_id":93,"name":"McDonalds","id":489,"address":"114 Delancey St","city":"New York","zip":10002,"latitude":40.718869381,"longitude":-73.9882432449999}},{"type":"Feature","geometry":{"type":"Point","coordinates":[-74.001108,40.730758]},"properties":{"cartodb_id":94,"name":"McDonalds","id":490,"address":"136 W 3rd St","city":"New York","zip":10012,"latitude":40.7307575200001,"longitude":-74.0011076909999}},{"type":"Feature","geometry":{"type":"Point","coordinates":[-73.993257,40.729119]},"properties":{"cartodb_id":95,"name":"McDonalds","id":491,"address":"724 Broadway","city":"New York","zip":10003,"latitude":40.729118709,"longitude":-73.9932565959999}},{"type":"Feature","geometry":{"type":"Point","coordinates":[-73.98581,40.726431]},"properties":{"cartodb_id":96,"name":"McDonalds","id":492,"address":"102-106 1st Ave","city":"New York","zip":10009,"latitude":40.7264309160001,"longitude":-73.9858101979999}},{"type":"Feature","geometry":{"type":"Point","coordinates":[-73.989497,40.729618]},"properties":{"cartodb_id":97,"name":"McDonalds","id":493,"address":"27 3rd Avenue","city":"New York","zip":10003,"latitude":40.7296179730001,"longitude":-73.9894969519999}},{"type":"Feature","geometry":{"type":"Point","coordinates":[-73.999906,40.733736]},"properties":{"cartodb_id":98,"name":"McDonalds","id":494,"address":"405 6th Ave","city":"New York","zip":10014,"latitude":40.7337355830001,"longitude":-73.9999061849999}},{"type":"Feature","geometry":{"type":"Point","coordinates":[-73.996839,40.737908]},"properties":{"cartodb_id":99,"name":"McDonalds","id":495,"address":"541 6th Avenue","city":"New York","zip":10011,"latitude":40.737907566,"longitude":-73.9968389499999}},{"type":"Feature","geometry":{"type":"Point","coordinates":[-73.999549,40.738174]},"properties":{"cartodb_id":100,"name":"McDonalds","id":496,"address":"154 West 14th Street","city":"New York","zip":10011,"latitude":40.7381738490001,"longitude":-73.999548935}},{"type":"Feature","geometry":{"type":"Point","coordinates":[-73.982432,40.730808]},"properties":{"cartodb_id":101,"name":"McDonalds","id":497,"address":"404 East 14th Street","city":"New York","zip":10009,"latitude":40.7308083360001,"longitude":-73.9824320659999}},{"type":"Feature","geometry":{"type":"Point","coordinates":[-73.990744,40.737054]},"properties":{"cartodb_id":102,"name":"McDonalds","id":498,"address":"39 Union Square West","city":"New York","zip":10003,"latitude":40.7370536180001,"longitude":-73.9907443059999}},{"type":"Feature","geometry":{"type":"Point","coordinates":[-73.993172,40.741898]},"properties":{"cartodb_id":103,"name":"McDonalds","id":499,"address":"686 6th Ave","city":"New York","zip":10010,"latitude":40.7418982760001,"longitude":-73.9931723019999}},{"type":"Feature","geometry":{"type":"Point","coordinates":[-73.979645,40.737044]},"properties":{"cartodb_id":104,"name":"McDonalds","id":500,"address":"336 East 23rd Street","city":"New York","zip":10010,"latitude":40.7370439580001,"longitude":-73.9796446949999}},{"type":"Feature","geometry":{"type":"Point","coordinates":[-73.990931,40.746043]},"properties":{"cartodb_id":105,"name":"McDonalds","id":501,"address":"809-811 6th Avenue","city":"New York","zip":10001,"latitude":40.746042694,"longitude":-73.9909307229999}},{"type":"Feature","geometry":{"type":"Point","coordinates":[-73.983775,40.742954]},"properties":{"cartodb_id":106,"name":"McDonalds","id":502,"address":"401 Park Avenue South","city":"New York","zip":10016,"latitude":40.7429540640001,"longitude":-73.9837749389999}},{"type":"Feature","geometry":{"type":"Point","coordinates":[-73.997394,40.747668]},"properties":{"cartodb_id":107,"name":"McDonalds","id":503,"address":"335 8th Avenue","city":"New York","zip":10001,"latitude":40.7476679120001,"longitude":-73.9973942789999}},{"type":"Feature","geometry":{"type":"Point","coordinates":[-73.991954,40.750274]},"properties":{"cartodb_id":108,"name":"McDonalds","id":504,"address":"7th Ave & West 32nd St, Penn Station Lower Level","city":"New York","zip":10001,"latitude":40.7502744490001,"longitude":-73.9919539999999}},{"type":"Feature","geometry":{"type":"Point","coordinates":[-73.989274,40.749155]},"properties":{"cartodb_id":109,"name":"McDonalds","id":505,"address":"901 6th Avenue","city":"New York","zip":10001,"latitude":40.749155096,"longitude":-73.9892737159999}},{"type":"Feature","geometry":{"type":"Point","coordinates":[-73.984524,40.747963]},"properties":{"cartodb_id":110,"name":"McDonalds","id":506,"address":"341 5th Avenue","city":"New York","zip":10016,"latitude":40.7479633350001,"longitude":-73.9845243999999}},{"type":"Feature","geometry":{"type":"Point","coordinates":[-73.979083,40.744973]},"properties":{"cartodb_id":111,"name":"McDonalds","id":507,"address":"480 3rd Avenue","city":"New York","zip":10016,"latitude":40.744973443,"longitude":-73.9790828939999}},{"type":"Feature","geometry":{"type":"Point","coordinates":[-73.990587,40.750481]},"properties":{"cartodb_id":112,"name":"McDonalds","id":508,"address":"429 7th Avenue","city":"New York","zip":10001,"latitude":40.750480924,"longitude":-73.9905872459999}},{"type":"Feature","geometry":{"type":"Point","coordinates":[-73.992846,40.752479]},"properties":{"cartodb_id":113,"name":"McDonalds","id":509,"address":"490 8th Ave","city":"New York","zip":10001,"latitude":40.7524792610001,"longitude":-73.9928463809999}},{"type":"Feature","geometry":{"type":"Point","coordinates":[-73.986729,40.750785]},"properties":{"cartodb_id":114,"name":"McDonalds","id":510,"address":"972 6th Ave","city":"New York","zip":10018,"latitude":40.750785211,"longitude":-73.9867289659999}},{"type":"Feature","geometry":{"type":"Point","coordinates":[-73.9997,40.754283]},"properties":{"cartodb_id":115,"name":"McDonalds","id":511,"address":"427 10th Avenue","city":"New York","zip":10001,"latitude":40.7542827820001,"longitude":-73.9997004189999}},{"type":"Feature","geometry":{"type":"Point","coordinates":[-73.988324,40.754727]},"properties":{"cartodb_id":116,"name":"McDonalds","id":512,"address":"556 7th Ave","city":"New York","zip":10018,"latitude":40.75472684,"longitude":-73.9883235419999}},{"type":"Feature","geometry":{"type":"Point","coordinates":[-73.980654,40.751506]},"properties":{"cartodb_id":117,"name":"McDonalds","id":513,"address":"280 Madison Ave","city":"New York","zip":10016,"latitude":40.7515062200001,"longitude":-73.9806544709999}},{"type":"Feature","geometry":{"type":"Point","coordinates":[-73.988164,40.756168]},"properties":{"cartodb_id":118,"name":"McDonalds","id":514,"address":"220 West 42nd Street","city":"New York","zip":10036,"latitude":40.756167814,"longitude":-73.9881644719999}},{"type":"Feature","geometry":{"type":"Point","coordinates":[-73.98876,40.758054]},"properties":{"cartodb_id":119,"name":"McDonalds","id":515,"address":"688 8th Avenue","city":"New York","zip":10036,"latitude":40.758053514,"longitude":-73.9887597199999}},{"type":"Feature","geometry":{"type":"Point","coordinates":[-73.981754,40.757613]},"properties":{"cartodb_id":120,"name":"McDonalds","id":516,"address":"1188 6th Avenue","city":"New York","zip":10036,"latitude":40.7576134590001,"longitude":-73.9817536179999}},{"type":"Feature","geometry":{"type":"Point","coordinates":[-73.984457,40.758591]},"properties":{"cartodb_id":121,"name":"McDonalds","id":517,"address":"1560 Broadway","city":"New York","zip":10036,"latitude":40.7585909840001,"longitude":-73.984456958}},{"type":"Feature","geometry":{"type":"Point","coordinates":[-73.977762,40.756133]},"properties":{"cartodb_id":122,"name":"McDonalds","id":518,"address":"14 East 47th Street","city":"New York","zip":10017,"latitude":40.7561333390001,"longitude":-73.9777619239999}},{"type":"Feature","geometry":{"type":"Point","coordinates":[-74.000895,40.764781]},"properties":{"cartodb_id":123,"name":"McDonalds","id":519,"address":"West 46th St & 12th Avenue Pier 86","city":"New York","zip":10036,"latitude":40.764781424,"longitude":-74.0008952689999}},{"type":"Feature","geometry":{"type":"Point","coordinates":[-73.989409,40.763436]},"properties":{"cartodb_id":124,"name":"McDonalds","id":520,"address":"735 9th Ave","city":"New York","zip":10019,"latitude":40.7634360170001,"longitude":-73.9894085919999}},{"type":"Feature","geometry":{"type":"Point","coordinates":[-73.983749,40.762521]},"properties":{"cartodb_id":125,"name":"McDonalds","id":521,"address":"1651 Broadway","city":"New York","zip":10019,"latitude":40.7625213590001,"longitude":-73.9837485139999}},{"type":"Feature","geometry":{"type":"Point","coordinates":[-73.970821,40.756154]},"properties":{"cartodb_id":126,"name":"McDonalds","id":522,"address":"824 3rd Avenue","city":"New York","zip":10022,"latitude":40.756153747,"longitude":-73.9708208639999}},{"type":"Feature","geometry":{"type":"Point","coordinates":[-73.983134,40.765823]},"properties":{"cartodb_id":127,"name":"McDonalds","id":523,"address":"946 8th Avenue","city":"New York","zip":10019,"latitude":40.765823196,"longitude":-73.9831340029999}},{"type":"Feature","geometry":{"type":"Point","coordinates":[-73.976326,40.76426]},"properties":{"cartodb_id":128,"name":"McDonalds","id":524,"address":"47 West 57th Street","city":"New York","zip":10019,"latitude":40.7642602390001,"longitude":-73.9763260669999}},{"type":"Feature","geometry":{"type":"Point","coordinates":[-73.967465,40.760893]},"properties":{"cartodb_id":129,"name":"McDonalds","id":525,"address":"966 3rd Avenue","city":"New York","zip":10022,"latitude":40.760893024,"longitude":-73.9674653319999}},{"type":"Feature","geometry":{"type":"Point","coordinates":[-73.982629,40.777897]},"properties":{"cartodb_id":130,"name":"McDonalds","id":526,"address":"2049 Broadway","city":"New York","zip":10023,"latitude":40.777897227,"longitude":-73.9826290629999}},{"type":"Feature","geometry":{"type":"Point","coordinates":[-73.957012,40.765836]},"properties":{"cartodb_id":131,"name":"McDonalds","id":527,"address":"1286 1st Avenue","city":"New York","zip":10021,"latitude":40.765835623,"longitude":-73.9570119169999}},{"type":"Feature","geometry":{"type":"Point","coordinates":[-73.954376,40.777719]},"properties":{"cartodb_id":132,"name":"McDonalds","id":528,"address":"1499 3rd Ave","city":"New York","zip":10028,"latitude":40.7777193300001,"longitude":-73.9543756829999}},{"type":"Feature","geometry":{"type":"Point","coordinates":[-73.970225,40.789659]},"properties":{"cartodb_id":133,"name":"McDonalds","id":530,"address":"638 Columbus Ave","city":"New York","zip":10024,"latitude":40.7896586190001,"longitude":-73.9702247589999}},{"type":"Feature","geometry":{"type":"Point","coordinates":[-73.947124,40.784696]},"properties":{"cartodb_id":134,"name":"McDonalds","id":531,"address":"1871 2nd Avenue","city":"New York","zip":10029,"latitude":40.7846960950001,"longitude":-73.9471235459999}},{"type":"Feature","geometry":{"type":"Point","coordinates":[-73.972473,40.794424]},"properties":{"cartodb_id":135,"name":"McDonalds","id":532,"address":"2549 Broadway","city":"New York","zip":10025,"latitude":40.7944240300001,"longitude":-73.9724726349999}},{"type":"Feature","geometry":{"type":"Point","coordinates":[-73.946227,40.79004]},"properties":{"cartodb_id":136,"name":"McDonalds","id":533,"address":"1872 3rd Ave","city":"New York","zip":10029,"latitude":40.7900396730001,"longitude":-73.9462272999999}},{"type":"Feature","geometry":{"type":"Point","coordinates":[-73.937041,40.804522]},"properties":{"cartodb_id":137,"name":"McDonalds","id":534,"address":"125th St & Lexington Ave","city":"New York","zip":10035,"latitude":40.8045217010001,"longitude":-73.9370408279999}},{"type":"Feature","geometry":{"type":"Point","coordinates":[-73.948932,40.809701]},"properties":{"cartodb_id":138,"name":"McDonalds","id":535,"address":"215 West 125th Street","city":"New York","zip":10027,"latitude":40.8097013860001,"longitude":-73.9489315519999}},{"type":"Feature","geometry":{"type":"Point","coordinates":[-73.95311,40.810672]},"properties":{"cartodb_id":139,"name":"McDonalds","id":536,"address":"354 W 125th St","city":"New York","zip":10027,"latitude":40.8106720490001,"longitude":-73.9531104109999}},{"type":"Feature","geometry":{"type":"Point","coordinates":[-73.958909,40.815939]},"properties":{"cartodb_id":140,"name":"McDonalds","id":537,"address":"600 West 125th St","city":"New York","zip":10027,"latitude":40.8159386360001,"longitude":-73.9589087529999}},{"type":"Feature","geometry":{"type":"Point","coordinates":[-73.941607,40.81239]},"properties":{"cartodb_id":141,"name":"McDonalds","id":538,"address":"444 Lenox Avenue","city":"New York","zip":10037,"latitude":40.8123904810001,"longitude":-73.9416068629999}},{"type":"Feature","geometry":{"type":"Point","coordinates":[-74.004858,40.708165]},"properties":{"cartodb_id":142,"name":"McDonalds","id":539,"address":"52 Fulton Street","city":"New York","zip":10038,"latitude":40.7081653100001,"longitude":-74.0048584859999}},{"type":"Feature","geometry":{"type":"Point","coordinates":[-73.941335,40.817924]},"properties":{"cartodb_id":143,"name":"McDonalds","id":540,"address":"2379 Adam Clayton Powell Jr Blvd","city":"New York","zip":10030,"latitude":40.817923701,"longitude":-73.9413346579999}},{"type":"Feature","geometry":{"type":"Point","coordinates":[-73.950653,40.826829]},"properties":{"cartodb_id":144,"name":"McDonalds","id":541,"address":"3549 Broadway","city":"New York","zip":10031,"latitude":40.8268291840001,"longitude":-73.9506528039999}},{"type":"Feature","geometry":{"type":"Point","coordinates":[-73.953156,40.822211]},"properties":{"cartodb_id":145,"name":"McDonalds","id":542,"address":"3410 Broadway","city":"New York","zip":10031,"latitude":40.822210871,"longitude":-73.9531564759999}},{"type":"Feature","geometry":{"type":"Point","coordinates":[-73.939911,40.798658]},"properties":{"cartodb_id":146,"name":"McDonalds","id":543,"address":"2142 3rd Ave","city":"New York","zip":10035,"latitude":40.7986577510001,"longitude":-73.9399105289999}},{"type":"Feature","geometry":{"type":"Point","coordinates":[-73.9792,40.785497]},"properties":{"cartodb_id":147,"name":"McDonalds","id":544,"address":"2271 Broadway","city":"New York","zip":10024,"latitude":40.7854968300001,"longitude":-73.9792001619999}},{"type":"Feature","geometry":{"type":"Point","coordinates":[-73.93626,40.850086]},"properties":{"cartodb_id":148,"name":"McDonalds","id":545,"address":"4259 Broadway","city":"New York","zip":10033,"latitude":40.8500862920001,"longitude":-73.9362603229999}},{"type":"Feature","geometry":{"type":"Point","coordinates":[-73.902545,40.819602]},"properties":{"cartodb_id":149,"name":"McDonalds","id":546,"address":"839 Westchester Avenue","city":"New York","zip":10455,"latitude":40.8196019110001,"longitude":-73.9025447079999}},{"type":"Feature","geometry":{"type":"Point","coordinates":[-73.92741,40.865117]},"properties":{"cartodb_id":150,"name":"McDonalds","id":547,"address":"208 Dyckman St","city":"New York","zip":10040,"latitude":40.8651165360001,"longitude":-73.9274098619999}},{"type":"Feature","geometry":{"type":"Point","coordinates":[-73.921308,40.867358]},"properties":{"cartodb_id":151,"name":"McDonalds","id":549,"address":"608 West 207th Street","city":"New York","zip":10034,"latitude":40.867357698,"longitude":-73.9213080159999}},{"type":"Feature","geometry":{"type":"Point","coordinates":[-73.952775,40.698705]},"properties":{"cartodb_id":152,"name":"McDonald's","id":1346,"address":"35-40 Nostrand Ave","city":"Brooklyn","zip":11206,"latitude":40.6987054610001,"longitude":-73.9527751519999}},{"type":"Feature","geometry":{"type":"Point","coordinates":[-73.991111,40.750319]},"properties":{"cartodb_id":153,"name":"McDonald's","id":762,"address":"West 33rd Street & 7th Avenue","city":"New York","zip":10001,"latitude":40.7503190260001,"longitude":-73.9911105989999}},{"type":"Feature","geometry":{"type":"Point","coordinates":[-73.980339,40.752953]},"properties":{"cartodb_id":154,"name":"McDonald's","id":843,"address":"18 East 42nd Street","city":"New York","zip":10017,"latitude":40.7529525,"longitude":-73.9803385509999}},{"type":"Feature","geometry":{"type":"Point","coordinates":[-73.973793,40.74816]},"properties":{"cartodb_id":155,"name":"McDonald's","id":844,"address":"729 2nd Avenue","city":"New York","zip":10016,"latitude":40.7481603020001,"longitude":-73.9737933719999}},{"type":"Feature","geometry":{"type":"Point","coordinates":[-73.98412,40.755278]},"properties":{"cartodb_id":156,"name":"McDonald's","id":847,"address":"1109 6th Avenue","city":"New York","zip":10036,"latitude":40.7552775540001,"longitude":-73.9841203949999}},{"type":"Feature","geometry":{"type":"Point","coordinates":[-73.938901,40.842768]},"properties":{"cartodb_id":157,"name":"McDonald's","id":849,"address":"4040 Broadway","city":"New York","zip":10032,"latitude":40.8427681850001,"longitude":-73.9389006449999}},{"type":"Feature","geometry":{"type":"Point","coordinates":[-73.942655,40.793817]},"properties":{"cartodb_id":158,"name":"McDonald's","id":850,"address":"1997 3rd Ave","city":"New York","zip":10029,"latitude":40.7938170480001,"longitude":-73.9426545939999}},{"type":"Feature","geometry":{"type":"Point","coordinates":[-73.983489,40.696453]},"properties":{"cartodb_id":159,"name":"McDonald's","id":1142,"address":"169 Tillary St","city":"Brooklyn","zip":11201,"latitude":40.6964532410001,"longitude":-73.9834886879999}},{"type":"Feature","geometry":{"type":"Point","coordinates":[-74.005054,40.728769]},"properties":{"cartodb_id":160,"name":"McDonald's","id":1143,"address":"208 Varick Street","city":"New York","zip":10014,"latitude":40.7287690150001,"longitude":-74.0050540269999}},{"type":"Feature","geometry":{"type":"Point","coordinates":[-73.864044,40.77037]},"properties":{"cartodb_id":161,"name":"McDonald's","id":1144,"address":"US Air East End Terminal - LaGuardia","city":"Flushing","zip":11371,"latitude":40.7703703600001,"longitude":-73.8640438079999}},{"type":"Feature","geometry":{"type":"Point","coordinates":[-73.782833,40.649471]},"properties":{"cartodb_id":162,"name":"McDonald's","id":1145,"address":"British Air Terminal - JFK","city":"Jamaica","zip":11430,"latitude":40.6494713850001,"longitude":-73.7828333069999}},{"type":"Feature","geometry":{"type":"Point","coordinates":[-73.893426,40.846671]},"properties":{"cartodb_id":163,"name":"McDonald's","id":1146,"address":"599 E Tremont Ave","city":"Bronx","zip":10457,"latitude":40.8466713230001,"longitude":-73.8934259829999}},{"type":"Feature","geometry":{"type":"Point","coordinates":[-73.881201,40.856437]},"properties":{"cartodb_id":164,"name":"McDonald's","id":1147,"address":"2505 Southern Blvd","city":"Bronx","zip":10458,"latitude":40.8564370010001,"longitude":-73.8812009289999}},{"type":"Feature","geometry":{"type":"Point","coordinates":[-73.892451,40.861602]},"properties":{"cartodb_id":165,"name":"McDonald's","id":1148,"address":"372 E Fordham Rd","city":"Bronx","zip":10458,"latitude":40.861601653,"longitude":-73.8924506109999}},{"type":"Feature","geometry":{"type":"Point","coordinates":[-73.902874,40.862496]},"properties":{"cartodb_id":166,"name":"McDonald's","id":1149,"address":"36 W Fordham Rd","city":"Bronx","zip":10468,"latitude":40.8624955130001,"longitude":-73.9028742929999}},{"type":"Feature","geometry":{"type":"Point","coordinates":[-73.89257,40.816933]},"properties":{"cartodb_id":167,"name":"McDonald's","id":1150,"address":"875 Garrison Ave","city":"Bronx","zip":10474,"latitude":40.8169325580001,"longitude":-73.8925698969999}},{"type":"Feature","geometry":{"type":"Point","coordinates":[-73.930562,40.656129]},"properties":{"cartodb_id":168,"name":"McDonald's","id":1151,"address":"701 Utica Ave","city":"Brooklyn","zip":11203,"latitude":40.6561290430001,"longitude":-73.9305620349999}},{"type":"Feature","geometry":{"type":"Point","coordinates":[-73.923203,40.652696]},"properties":{"cartodb_id":169,"name":"McDonald's","id":1152,"address":"5707-13 Church Ave","city":"Brooklyn","zip":11203,"latitude":40.6526958100001,"longitude":-73.9232026449999}},{"type":"Feature","geometry":{"type":"Point","coordinates":[-73.860342,40.670139]},"properties":{"cartodb_id":170,"name":"McDonald's","id":1153,"address":"2797 Linden Blvd","city":"Brooklyn","zip":11208,"latitude":40.670139212,"longitude":-73.8603420299999}},{"type":"Feature","geometry":{"type":"Point","coordinates":[-73.930733,40.669261]},"properties":{"cartodb_id":171,"name":"McDonald's","id":1154,"address":"1133 Eastern Parkway","city":"Brooklyn","zip":11213,"latitude":40.669260777,"longitude":-73.9307329229999}},{"type":"Feature","geometry":{"type":"Point","coordinates":[-73.976893,40.684592]},"properties":{"cartodb_id":172,"name":"McDonald's","id":1155,"address":"Atlantic Terminal","city":"Brooklyn","zip":11217,"latitude":40.684591932,"longitude":-73.9768933959999}},{"type":"Feature","geometry":{"type":"Point","coordinates":[-73.987711,40.644584]},"properties":{"cartodb_id":173,"name":"McDonald's","id":1156,"address":"3525 Fort Hamilton Parkway","city":"Brooklyn","zip":11218,"latitude":40.6445841340001,"longitude":-73.9877105999999}},{"type":"Feature","geometry":{"type":"Point","coordinates":[-73.928647,40.632103]},"properties":{"cartodb_id":174,"name":"McDonald's","id":1157,"address":"1656 Utica Ave","city":"Brooklyn","zip":11234,"latitude":40.63210251,"longitude":-73.9286470939999}},{"type":"Feature","geometry":{"type":"Point","coordinates":[-73.928964,40.615047]},"properties":{"cartodb_id":175,"name":"McDonald's","id":1158,"address":"2240-50 Flatbush Ave.","city":"Brooklyn","zip":11234,"latitude":40.615047249,"longitude":-73.9289636299999}},{"type":"Feature","geometry":{"type":"Point","coordinates":[-73.889902,40.633074]},"properties":{"cartodb_id":176,"name":"McDonald's","id":1159,"address":"2028 Rockaway Parkway","city":"Brooklyn","zip":11236,"latitude":40.6330740080001,"longitude":-73.8899021759999}},{"type":"Feature","geometry":{"type":"Point","coordinates":[-73.827972,40.760332]},"properties":{"cartodb_id":177,"name":"McDonald's","id":1160,"address":"136-61 Roosevelt Ave","city":"Flushing","zip":11354,"latitude":40.7603323760001,"longitude":-73.8279722959999}},{"type":"Feature","geometry":{"type":"Point","coordinates":[-73.777268,40.680157]},"properties":{"cartodb_id":178,"name":"McDonald's","id":1161,"address":"166-01 Baisley Boulevard","city":"Jamaica","zip":11434,"latitude":40.6801565110001,"longitude":-73.7772678849999}},{"type":"Feature","geometry":{"type":"Point","coordinates":[-73.926928,40.743678]},"properties":{"cartodb_id":179,"name":"McDonald's","id":1162,"address":"33-80 Queens Blvd","city":"Long Island City","zip":11101,"latitude":40.7436784380001,"longitude":-73.9269282909999}},{"type":"Feature","geometry":{"type":"Point","coordinates":[-73.894269,40.726783]},"properties":{"cartodb_id":180,"name":"McDonald's","id":1163,"address":"69-35 Grand Ave","city":"Maspeth","zip":11378,"latitude":40.7267830210001,"longitude":-73.8942692239999}},{"type":"Feature","geometry":{"type":"Point","coordinates":[-73.974509,40.75316]},"properties":{"cartodb_id":181,"name":"McDonald's","id":1164,"address":"451 Lexington Avenue","city":"New York","zip":10017,"latitude":40.75315987,"longitude":-73.9745089309999}},{"type":"Feature","geometry":{"type":"Point","coordinates":[-73.964321,40.755786]},"properties":{"cartodb_id":182,"name":"McDonald's","id":1165,"address":"966 1st Avenue","city":"New York","zip":10022,"latitude":40.7557858800001,"longitude":-73.9643212419999}},{"type":"Feature","geometry":{"type":"Point","coordinates":[-73.944226,40.834354]},"properties":{"cartodb_id":183,"name":"McDonald's","id":1166,"address":"3794 Broadway","city":"New York","zip":10032,"latitude":40.8343537900001,"longitude":-73.9442255409999}},{"type":"Feature","geometry":{"type":"Point","coordinates":[-74.149341,40.62549]},"properties":{"cartodb_id":184,"name":"McDonald's","id":1167,"address":"1815 Forest Ave","city":"Staten Island","zip":10303,"latitude":40.625490025,"longitude":-74.1493413769999}},{"type":"Feature","geometry":{"type":"Point","coordinates":[-73.743118,40.696622]},"properties":{"cartodb_id":185,"name":"McDonald's","id":345,"address":"216-07 LINDEN BLVD","city":"Cambria Heights","zip":11411,"latitude":40.6966224500001,"longitude":-73.7431178569999}},{"type":"Feature","geometry":{"type":"Point","coordinates":[-73.926156,40.760619]},"properties":{"cartodb_id":186,"name":"McDonald's","id":346,"address":"32-55 31ST STREET","city":"Long Island City","zip":11106,"latitude":40.7606186890001,"longitude":-73.9261556579999}},{"type":"Feature","geometry":{"type":"Point","coordinates":[-73.912264,40.77526]},"properties":{"cartodb_id":187,"name":"McDonald's","id":347,"address":"22 50 31ST ST","city":"Astoria","zip":11105,"latitude":40.7752603800001,"longitude":-73.9122641569999}},{"type":"Feature","geometry":{"type":"Point","coordinates":[-73.930972,40.766383]},"properties":{"cartodb_id":188,"name":"McDonald's","id":348,"address":"31-46 21ST ST","city":"Long Island City","zip":11106,"latitude":40.7663828920001,"longitude":-73.9309722899999}},{"type":"Feature","geometry":{"type":"Point","coordinates":[-74.115861,40.629307]},"properties":{"cartodb_id":189,"name":"McDonald's","id":358,"address":"803 Forest Ave","city":"Staten Island","zip":10310,"latitude":40.6293072400001,"longitude":-74.1158606749999}},{"type":"Feature","geometry":{"type":"Point","coordinates":[-74.169132,40.559446]},"properties":{"cartodb_id":190,"name":"McDonald's","id":359,"address":"3267 Richmond Ave","city":"Staten Island","zip":10312,"latitude":40.5594463460001,"longitude":-74.1691323509999}},{"type":"Feature","geometry":{"type":"Point","coordinates":[-74.076341,40.629944]},"properties":{"cartodb_id":191,"name":"McDonald's","id":360,"address":"501 Bay St","city":"Staten Island","zip":10304,"latitude":40.629944127,"longitude":-74.0763405079999}},{"type":"Feature","geometry":{"type":"Point","coordinates":[-74.166774,40.576432]},"properties":{"cartodb_id":192,"name":"McDonald's","id":361,"address":"2795 Richmond Ave","city":"Staten Island","zip":10314,"latitude":40.5764319360001,"longitude":-74.1667743029999}},{"type":"Feature","geometry":{"type":"Point","coordinates":[-73.912278,40.669162]},"properties":{"cartodb_id":193,"name":"McDonald's","id":918,"address":"1642 Pitkin Ave","city":"Brooklyn","zip":11212,"latitude":40.6691618440001,"longitude":-73.9122778439999}},{"type":"Feature","geometry":{"type":"Point","coordinates":[-73.982806,40.612963]},"properties":{"cartodb_id":194,"name":"McDonald's","id":919,"address":"6620 Bay Pky","city":"Brooklyn","zip":11204,"latitude":40.6129632190001,"longitude":-73.9828059449999}},{"type":"Feature","geometry":{"type":"Point","coordinates":[-73.961461,40.598077]},"properties":{"cartodb_id":195,"name":"McDonald's","id":920,"address":"2410 Coney Island Ave","city":"Brooklyn","zip":11223,"latitude":40.598077388,"longitude":-73.9614608489999}},{"type":"Feature","geometry":{"type":"Point","coordinates":[-73.999144,40.673525]},"properties":{"cartodb_id":196,"name":"McDonald's","id":921,"address":"357 Hamilton Avenue","city":"Brooklyn","zip":11231,"latitude":40.6735252910001,"longitude":-73.9991436519999}},{"type":"Feature","geometry":{"type":"Point","coordinates":[-73.991865,40.691413]},"properties":{"cartodb_id":197,"name":"McDonald's","id":922,"address":"82 Court St","city":"Brooklyn","zip":11201,"latitude":40.6914131820001,"longitude":-73.9918645209999}},{"type":"Feature","geometry":{"type":"Point","coordinates":[-73.950317,40.680651]},"properties":{"cartodb_id":198,"name":"McDonald's","id":923,"address":"1275 Fulton Street","city":"Brooklyn","zip":11216,"latitude":40.6806513910001,"longitude":-73.9503168669999}},{"type":"Feature","geometry":{"type":"Point","coordinates":[-73.989747,40.619161]},"properties":{"cartodb_id":199,"name":"McDonald's","id":924,"address":"6419 18th Ave","city":"Brooklyn","zip":11204,"latitude":40.619160831,"longitude":-73.9897466419999}},{"type":"Feature","geometry":{"type":"Point","coordinates":[-73.948559,40.638267]},"properties":{"cartodb_id":200,"name":"McDonald's","id":925,"address":"1930 Nostrand Ave","city":"Brooklyn","zip":11210,"latitude":40.6382674290001,"longitude":-73.9485586569999}},{"type":"Feature","geometry":{"type":"Point","coordinates":[-73.964523,40.693311]},"properties":{"cartodb_id":201,"name":"McDonald's","id":926,"address":"516A Myrtle Ave","city":"Brooklyn","zip":11205,"latitude":40.6933113650001,"longitude":-73.9645233969999}},{"type":"Feature","geometry":{"type":"Point","coordinates":[-73.986246,40.690764]},"properties":{"cartodb_id":202,"name":"McDonald's","id":927,"address":"420 Fulton St","city":"Brooklyn","zip":11201,"latitude":40.6907635910001,"longitude":-73.9862460859999}},{"type":"Feature","geometry":{"type":"Point","coordinates":[-73.96698,40.681353]},"properties":{"cartodb_id":203,"name":"McDonald's","id":928,"address":"840 Atlantic Ave","city":"Brooklyn","zip":11238,"latitude":40.6813525190001,"longitude":-73.9669800129999}},{"type":"Feature","geometry":{"type":"Point","coordinates":[-73.921877,40.689115]},"properties":{"cartodb_id":204,"name":"McDonald's","id":929,"address":"1380 Broadway","city":"Brooklyn","zip":11221,"latitude":40.6891154880001,"longitude":-73.9218773029999}},{"type":"Feature","geometry":{"type":"Point","coordinates":[-73.988079,40.740597]},"properties":{"cartodb_id":205,"name":"McDonald's","id":1006,"address":"22 E 23rd St Flatiron","city":"New York","zip":10010,"latitude":40.740596957,"longitude":-73.9880791829999}},{"type":"Feature","geometry":{"type":"Point","coordinates":[-73.916711,40.816149]},"properties":{"cartodb_id":206,"name":"McDonald's","id":1047,"address":"2870 3rd Ave","city":"Bronx","zip":10455,"latitude":40.8161494860001,"longitude":-73.9167111759999}},{"type":"Feature","geometry":{"type":"Point","coordinates":[-73.904734,40.841762]},"properties":{"cartodb_id":207,"name":"McDonald's","id":1048,"address":"1625 Webster Ave","city":"Bronx","zip":10457,"latitude":40.8417623280001,"longitude":-73.9047341509999}},{"type":"Feature","geometry":{"type":"Point","coordinates":[-73.878006,40.828395]},"properties":{"cartodb_id":208,"name":"McDonald's","id":1049,"address":"1540 Westchester Ave","city":"Bronx","zip":10472,"latitude":40.8283952450001,"longitude":-73.8780062529999}},{"type":"Feature","geometry":{"type":"Point","coordinates":[-73.921649,40.644671]},"properties":{"cartodb_id":209,"name":"McDonald's","id":1050,"address":"5804 Clarendon Rd","city":"Brooklyn","zip":11203,"latitude":40.6446708130001,"longitude":-73.9216491679999}},{"type":"Feature","geometry":{"type":"Point","coordinates":[-73.96163,40.654721]},"properties":{"cartodb_id":210,"name":"McDonald's","id":1051,"address":"180 Parkside Ave","city":"Brooklyn","zip":11226,"latitude":40.6547211260001,"longitude":-73.96162992}},{"type":"Feature","geometry":{"type":"Point","coordinates":[-73.989295,40.750768]},"properties":{"cartodb_id":211,"name":"McDonalds","id":1091,"address":"151 WEST 34TH STREET","city":"New York","zip":10001,"latitude":40.750767899,"longitude":-73.9892954419999}},{"type":"Feature","geometry":{"type":"Point","coordinates":[-73.980674,40.689128]},"properties":{"cartodb_id":212,"name":"McDonalds","id":1092,"address":"395 FLATBUSH AVE EXTEN","city":"Brooklyn","zip":11201,"latitude":40.6891275,"longitude":-73.9806743949999}},{"type":"Feature","geometry":{"type":"Point","coordinates":[-73.954071,40.730365]},"properties":{"cartodb_id":213,"name":"McDonalds","id":1093,"address":"904 MANHATTAN AVE & GREENPOINT","city":"Brooklyn","zip":11222,"latitude":40.7303652850001,"longitude":-73.9540706709999}},{"type":"Feature","geometry":{"type":"Point","coordinates":[-73.944928,40.807726]},"properties":{"cartodb_id":214,"name":"McDonalds","id":1094,"address":"79 W 125TH ST","city":"New York","zip":10027,"latitude":40.807725594,"longitude":-73.9449281439999}},{"type":"Feature","geometry":{"type":"Point","coordinates":[-74.086099,40.594649]},"properties":{"cartodb_id":215,"name":"McDonalds","id":1095,"address":"1388 HYLAN BLVD","city":"Staten Island","zip":10305,"latitude":40.5946492250001,"longitude":-74.0860986229999}},{"type":"Feature","geometry":{"type":"Point","coordinates":[-73.953663,40.587365]},"properties":{"cartodb_id":216,"name":"McDonalds","id":1096,"address":"1509 SHEEPSHEAD BAY RD","city":"Brooklyn","zip":11235,"latitude":40.587365091,"longitude":-73.9536628779999}},{"type":"Feature","geometry":{"type":"Point","coordinates":[-73.80946,40.704905]},"properties":{"cartodb_id":217,"name":"McDonalds","id":1097,"address":"87-84 SUTPHIN BLVD","city":"Jamaica","zip":11435,"latitude":40.7049046330001,"longitude":-73.8094602629999}},{"type":"Feature","geometry":{"type":"Point","coordinates":[-74.162886,40.607763]},"properties":{"cartodb_id":218,"name":"McDonalds","id":1098,"address":"1660 RICHMOND AVE","city":"Staten Island","zip":10314,"latitude":40.607762741,"longitude":-74.1628864309999}},{"type":"Feature","geometry":{"type":"Point","coordinates":[-73.792926,40.706048]},"properties":{"cartodb_id":219,"name":"McDonalds","id":1099,"address":"166-30 JAMAICA AVE","city":"Queens","zip":11432,"latitude":40.7060476920001,"longitude":-73.7929257719999}}]}